var data = {
"type": "FeatureCollection",
"name": "mirgrationOutflows",
"crs": { "type": "name", "properties": { "name": "urn:ogc:def:crs:OGC:1.3:CRS84" } },
"features": [
{ "type": "Feature", "properties": { "GEOID_A": "17031", "GEOID_B": "12057", "State_A": "Illinois", "County_A": "Cook County", "State_B": "Florida", "County_B": "Hillsborough County", "Flow_B2A": 537, "Flow_A2B": 796, "Net_B2A": -259, "A_lon": -87.8169, "A_lat": 41.84, "B_lon": -82.3087, "B_lat": 27.9292 }, "geometry": { "type": "Point", "coordinates": [ -87.8169, 41.84 ] } },
{ "type": "Feature", "properties": { "GEOID_A": "17031", "GEOID_B": "12086", "State_A": "Illinois", "County_A": "Cook County", "State_B": "Florida", "County_B": "Miami-Dade County", "Flow_B2A": 522, "Flow_A2B": 817, "Net_B2A": -295, "A_lon": -87.8169, "A_lat": 41.84, "B_lon": -80.5591, "B_lat": 25.6152 }, "geometry": { "type": "Point", "coordinates": [ -87.8169, 41.84 ] } },
{ "type": "Feature", "properties": { "GEOID_A": "17031", "GEOID_B": "12095", "State_A": "Illinois", "County_A": "Cook County", "State_B": "Florida", "County_B": "Orange County", "Flow_B2A": 277, "Flow_A2B": 844, "Net_B2A": -567, "A_lon": -87.8169, "A_lat": 41.84, "B_lon": -81.3237, "B_lat": 28.5144 }, "geometry": { "type": "Point", "coordinates": [ -87.8169, 41.84 ] } },
{ "type": "Feature", "properties": { "GEOID_A": "17031", "GEOID_B": "13121", "State_A": "Illinois", "County_A": "Cook County", "State_B": "Georgia", "County_B": "Fulton County", "Flow_B2A": 630, "Flow_A2B": 878, "Net_B2A": -248, "A_lon": -87.8169, "A_lat": 41.84, "B_lon": -84.4667, "B_lat": 33.7902 }, "geometry": { "type": "Point", "coordinates": [ -87.8169, 41.84 ] } },
{ "type": "Feature", "properties": { "GEOID_A": "17031", "GEOID_B": "25025", "State_A": "Illinois", "County_A": "Cook County", "State_B": "Massachusetts", "County_B": "Suffolk County", "Flow_B2A": 717, "Flow_A2B": 843, "Net_B2A": -126, "A_lon": -87.8169, "A_lat": 41.84, "B_lon": -71.0692, "B_lat": 42.3343 }, "geometry": { "type": "Point", "coordinates": [ -87.8169, 41.84 ] } },
{ "type": "Feature", "properties": { "GEOID_A": "17031", "GEOID_B": "26161", "State_A": "Illinois", "County_A": "Cook County", "State_B": "Michigan", "County_B": "Washtenaw County", "Flow_B2A": 818, "Flow_A2B": 962, "Net_B2A": -144, "A_lon": -87.8169, "A_lat": 41.84, "B_lon": -83.8385, "B_lat": 42.2528 }, "geometry": { "type": "Point", "coordinates": [ -87.8169, 41.84 ] } },
{ "type": "Feature", "properties": { "GEOID_A": "17031", "GEOID_B": "27123", "State_A": "Illinois", "County_A": "Cook County", "State_B": "Minnesota", "County_B": "Ramsey County", "Flow_B2A": 459, "Flow_A2B": 886, "Net_B2A": -427, "A_lon": -87.8169, "A_lat": 41.84, "B_lon": -93.0996, "B_lat": 45.0173 }, "geometry": { "type": "Point", "coordinates": [ -87.8169, 41.84 ] } },
{ "type": "Feature", "properties": { "GEOID_A": "17031", "GEOID_B": "36047", "State_A": "Illinois", "County_A": "Cook County", "State_B": "New York", "County_B": "Kings County", "Flow_B2A": 951, "Flow_A2B": 959, "Net_B2A": -8, "A_lon": -87.8169, "A_lat": 41.84, "B_lon": -73.9386, "B_lat": 40.6398 }, "geometry": { "type": "Point", "coordinates": [ -87.8169, 41.84 ] } },
{ "type": "Feature", "properties": { "GEOID_A": "17031", "GEOID_B": "47037", "State_A": "Illinois", "County_A": "Cook County", "State_B": "Tennessee", "County_B": "Davidson County", "Flow_B2A": 564, "Flow_A2B": 900, "Net_B2A": -336, "A_lon": -87.8169, "A_lat": 41.84, "B_lon": -86.7844, "B_lat": 36.1694 }, "geometry": { "type": "Point", "coordinates": [ -87.8169, 41.84 ] } },
{ "type": "Feature", "properties": { "GEOID_A": "17031", "GEOID_B": "48121", "State_A": "Illinois", "County_A": "Cook County", "State_B": "Texas", "County_B": "Denton County", "Flow_B2A": 246, "Flow_A2B": 895, "Net_B2A": -649, "A_lon": -87.8169, "A_lat": 41.84, "B_lon": -97.1169, "B_lat": 33.2053 }, "geometry": { "type": "Point", "coordinates": [ -87.8169, 41.84 ] } },
{ "type": "Feature", "properties": { "GEOID_A": "17031", "GEOID_B": "48439", "State_A": "Illinois", "County_A": "Cook County", "State_B": "Texas", "County_B": "Tarrant County", "Flow_B2A": 284, "Flow_A2B": 809, "Net_B2A": -525, "A_lon": -87.8169, "A_lat": 41.84, "B_lon": -97.2912, "B_lat": 32.7715 }, "geometry": { "type": "Point", "coordinates": [ -87.8169, 41.84 ] } }
]
}
